[
  {
    "id": 0,
    "name": "Plitvice Lakes",
    "neighborhood": "Croatia",
    "imgSm": "https://images.unsplash.com/photo-1442953827601-b6dea5af04c4?ixlib=rb-0.3.5&ixid=eyJhcHBfaWQiOjEyMDd9&s=a3740f47900c206dfd159030cba7bbe9&auto=format&fit=crop&h=150&q=40",
    "alt": "lake and forest",
    "latlng": {
      "lat": 44.865397,
      "lng": 15.582012
    }
  }, {
    "id": 1,
    "name": "Triglav National Park",
    "neighborhood": "Slovenia",
    "imgSm": "https://images.unsplash.com/photo-1469362162229-0f61f9d31799?ixlib=rb-0.3.5&ixid=eyJhcHBfaWQiOjEyMDd9&s=3d5cd472df5db743381e0d1101862cf0&auto=format&fit=crop&h=150&q=40",
    "alt": "mountains",
    "latlng": {
      "lat": 46.334183,
      "lng": 13.828692
    }
  }, {
    "id": 2,
    "name": "Göreme National Park",
    "neighborhood": "Turkey",
    "imgSm": "https://images.unsplash.com/photo-1505783638529-f3fdc62e1bb1?ixlib=rb-0.3.5&ixid=eyJhcHBfaWQiOjEyMDd9&s=d7733a42c2f506957917d8bf2ea6a42b&auto=format&fit=crop&h=150&q=40",
    "alt": "air baloons",
    "latlng": {
      "lat": 38.643056,
      "lng": 34.828889
    }
  }, {
    "id": 3,
    "name": "Ordesa",
    "neighborhood": "Spain",
    "imgSm": "https://images.unsplash.com/photo-1516430151358-ac6b682aaed7?ixlib=rb-0.3.5&ixid=eyJhcHBfaWQiOjEyMDd9&s=133f4c8fdf27d1c8e2fbbb34612d27a5&auto=format&fit=crop&h=150&q=40",
    "alt": "mountains view through window",
    "latlng": {
      "lat": 42.646870,
      "lng": 0.034900
    }
  }, {
    "id": 4,
    "name": "Dolomiti Bellunesi National Park",
    "neighborhood": "Italy",
    "imgSm": "https://images.unsplash.com/photo-1531275090635-95f0974c3073?ixlib=rb-0.3.5&ixid=eyJhcHBfaWQiOjEyMDd9&s=3cd86ee8030e479f024e7a9a64e35153&auto=format&fit=crop&h=150&q=40",
    "alt":"lake, forest and mountains",
    "latlng": {
      "lat": 46.169919,
      "lng": 12.036645
    }
  }, {
    "id": 5,
    "name": "Vatnajökull National Park",
    "neighborhood": "Iceland",
    "imgSm": "https://images.unsplash.com/photo-1472114864173-39596323454f?ixlib=rb-0.3.5&ixid=eyJhcHBfaWQiOjEyMDd9&s=3a113626b8390e8e5b070b767b652945&auto=format&fit=crop&h=150&q=40",
    "alt": "ice in lake",
    "latlng": {
      "lat": 64.784300,
      "lng": -17.209108
    }
  }, {
    "id": 6,
    "name": "Saxon Switzerland National Park",
    "neighborhood": "Germany",
    "imgSm": "https://images.unsplash.com/photo-1524780236126-c6858d4a8cf2?ixlib=rb-0.3.5&ixid=eyJhcHBfaWQiOjEyMDd9&s=d1a45407dfea94eb7485aee3937425e8&auto=format&fit=crop&h=150&q=40",
    "alt": "mountains",
    "latlng": {
      "lat": 50.914524,
      "lng": 14.281172
    }
  }, {
    "id": 7,
    "name": "Durmitor",
    "neighborhood": "Montenegro",
    "imgSm": "https://images.unsplash.com/photo-1503147943191-8935764b7a68?ixlib=rb-0.3.5&ixid=eyJhcHBfaWQiOjEyMDd9&s=65fbb5aba6c20cfd28998054cc2eacf2&auto=format&fit=crop&h=150&q=40",
    "alt": "mountains and forest",
    "latlng": {
      "lat": 43.149618,
      "lng": 19.089581
    }
  }, {
    "id": 8,
    "name": "Oulanka National Park",
    "neighborhood": "Finland",
    "imgSm": "https://images.unsplash.com/photo-1482386308359-4d3ec385e0f7?ixlib=rb-0.3.5&ixid=eyJhcHBfaWQiOjEyMDd9&s=cc9d315f9fea77105fc9d10d300666b4&auto=format&fit=crop&h=150&q=40",
    "alt": "snowy forest",
    "latlng": {
      "lat": 66.374572,
      "lng": 29.322234
    }
  }, {
    "id": 9,
    "name": "Écrins National Park",
    "neighborhood": "France",
    "imgSm": "https://images.unsplash.com/photo-1459236914855-982c6a11b8ee?ixlib=rb-0.3.5&ixid=eyJhcHBfaWQiOjEyMDd9&s=9ef317d63cfd623be299372d9f5d5bd2&auto=format&fit=crop&h=150&q=40",
    "alt": "mountains",
    "latlng": {
      "lat": 44.838790,
      "lng": 6.262055
    }
  }, {
    "id": 10,
    "name": "Sarek National Park",
    "neighborhood": "Sweden",
    "imgSm": "https://images.unsplash.com/photo-1420177771698-aeaf0648c534?ixlib=rb-0.3.5&ixid=eyJhcHBfaWQiOjEyMDd9&s=f856d576120e0c15ce975f8c217cc592&auto=format&fit=crop&h=150&q=40",
    "alt": "mountains",
    "latlng": {
      "lat": 67.283333,
      "lng": 17.700000
    }
  },{
    "id": 11,
    "name": "Parco Nazionale delle Cinque Terre",
    "neighborhood": "Italy",
    "imgSm": "https://images.unsplash.com/photo-1530735606451-8f5f13955328?ixlib=rb-0.3.5&ixid=eyJhcHBfaWQiOjEyMDd9&s=65cb7442d15a0c109e4c8397bb79e872&auto=format&fit=crop&h=150&q=40",
    "alt": "town on rock",
    "latlng": {
      "lat": 44.148772,
      "lng": 9.654408
    }
  }, {
    "id": 12,
    "name": "Loch Lomond and The Trossachs National Park",
    "neighborhood": "UK",
    "imgSm": "https://images.unsplash.com/photo-1522144937397-b921f9d046d7?ixlib=rb-0.3.5&ixid=eyJhcHBfaWQiOjEyMDd9&s=01792e3f61114fc5459388f449fe73dd&auto=format&fit=crop&h=150&q=40",
    "alt": "mountains",
    "latlng": {
      "lat": 56.111368,
      "lng": -4.628860
    }
  }, {
    "id": 13,
    "name": "Black Forest National Park",
    "neighborhood": "Germany",
    "imgSm": "https://images.unsplash.com/photo-1507391002826-7b5d1f4e0fb4?ixlib=rb-0.3.5&ixid=eyJhcHBfaWQiOjEyMDd9&s=698b3a17ad0fa0efd394b31602c0796b&auto=format&fit=crop&h=150&q=40",
    "alt": "forest",
    "latlng": {
      "lat": 48.502240,
      "lng": 8.375380
    }
  }, {
    "id": 14,
    "name": "Pembrokeshire Coast National Park",
    "neighborhood": "UK",
    "imgSm": "https://images.unsplash.com/photo-1526569472079-38fdd1b6d337?ixlib=rb-0.3.5&ixid=eyJhcHBfaWQiOjEyMDd9&s=6dff3ea2be90e302398557867a64e41a&auto=format&fit=crop&h=150&q=40",
    "alt": "cliffs",
    "latlng": {
      "lat": 51.812224,
      "lng": -5.097453
    }
  }, {
    "id": 15,
    "name": "High Tauern",
    "neighborhood": "Austria",
    "imgSm": "https://images.unsplash.com/photo-1486854766770-416082c9ec00?ixlib=rb-0.3.5&ixid=eyJhcHBfaWQiOjEyMDd9&s=8e9601a19c2364d5e4f4d671c99cf1ec&auto=format&fit=crop&h=150&q=40",
    "alt": "mountains",
    "latlng": {
      "lat": 47.166638,
      "lng": 12.499831
    }
  }, {
    "id": 16,
    "name": "Nera Gorge-Beușnița National Park",
    "neighborhood": "Romania",
    "imgSm": "https://images.unsplash.com/photo-1525272145895-cf08d56090d6?ixlib=rb-0.3.5&ixid=eyJhcHBfaWQiOjEyMDd9&s=aa91455308a1271e310a1eb99f820ac1&auto=format&fit=crop&h=150&q=40",
    "alt": "mountains",
    "latlng": {
      "lat": 44.955844,
      "lng": 21.887790
    }
  }, {
    "id": 17,
    "name": "Mljet",
    "neighborhood": "Croatia",
    "imgSm": "https://images.unsplash.com/photo-1474215734730-73ff91c0370e?ixlib=rb-0.3.5&ixid=eyJhcHBfaWQiOjEyMDd9&s=66d10a15999b4420bc22e0c3358f08c4&auto=format&fit=crop&h=150&q=40",
    "alt": "lake",
    "latlng": {
      "lat": 42.747771,
      "lng": 17.515014
    }
  }, {
    "id": 18,
    "name": "Swiss National Park",
    "neighborhood": "Switzerland",
    "imgSm": "https://images.unsplash.com/photo-1420177771698-aeaf0648c534?ixlib=rb-0.3.5&ixid=eyJhcHBfaWQiOjEyMDd9&s=f856d576120e0c15ce975f8c217cc592&auto=format&fit=crop&h=150&q=40",
    "alt": "mountains",
    "latlng": {
      "lat": 46.666591,
      "lng": 10.199904
    }
  }, {
    "id": 19,
    "name": "Rago National Park",
    "neighborhood": "Norway",
    "imgSm": "https://images.unsplash.com/photo-1526080676457-4544bf0ebba9?ixlib=rb-0.3.5&ixid=eyJhcHBfaWQiOjEyMDd9&s=b737ad3b3a556eba651416be8846bb0f&auto=format&fit=crop&h=150&q=40",
    "alt": "mountains",
    "latlng": {
      "lat": 60.472024,
      "lng": 8.468946
    }
  }
]
